City_ID,City,Lat,Lng,Max Temp,Humidity,Cloudiness,Wind Speed,Country,Date
0,rikitea,-23.1203,-134.9692,23.99,76,11,7.0,PF,1670360112
1,albany,42.6001,-73.9662,11.33,90,100,2.8,US,1670360054
2,kodiak,57.79,-152.4072,2.76,82,92,5.18,US,1670360118
3,nyuksenitsa,60.4128,44.2397,-7.28,72,100,4.66,RU,1670360188
4,mar del plata,-38.0023,-57.5575,24.35,76,40,6.69,AR,1670359937
5,castro,-24.7911,-50.0119,21.49,92,32,1.92,BR,1670360161
6,saskylakh,71.9167,114.0833,-21.54,98,100,3.81,RU,1670360110
7,mozarlandia,-14.7447,-50.5706,26.14,80,87,2.85,BR,1670360189
8,ilulissat,69.2167,-51.1,-1.36,97,100,2.0,GL,1670360119
9,atuona,-9.8,-139.0333,25.25,77,82,7.15,PF,1670359902
10,ushuaia,-54.8,-68.3,6.81,61,75,13.38,AR,1670359965
11,russell,32.3502,-85.1999,25.56,68,95,2.5,US,1670360189
12,port elizabeth,-33.918,25.5701,19.5,91,0,3.09,ZA,1670360189
13,hithadhoo,-0.6,73.0833,27.5,75,55,5.16,MV,1670360190
14,masvingo,-20.0637,30.8277,22.22,59,96,1.0,ZW,1670360190
15,tyrma,50.0833,132.1667,-23.7,100,88,1.11,RU,1670360190
16,lebu,-37.6167,-73.65,18.51,68,5,3.42,CL,1670360161
17,hami,42.8,93.45,-5.76,41,66,1.37,CN,1670360140
18,clovis,36.8252,-119.7029,14.91,68,100,0.45,US,1670360048
19,hilo,19.7297,-155.09,24.58,71,90,5.1,US,1670360148
20,leningradskiy,69.3833,178.4167,-19.84,92,20,3.22,RU,1670360144
21,adrar,20.5022,-10.0711,26.35,28,0,3.12,MR,1670360161
22,barranquilla,10.9639,-74.7964,29.88,58,0,4.63,CO,1670360191
23,inhambane,-23.865,35.3833,25.47,87,3,4.45,MZ,1670360191
24,makakilo city,21.3469,-158.0858,26.91,72,99,4.47,US,1670360192
25,nikolskoye,59.7035,30.7861,-6.06,92,100,3.99,RU,1670360138
26,skibbereen,51.55,-9.2667,5.24,77,88,5.47,IE,1670360192
27,tasiilaq,65.6145,-37.6368,-8.14,63,17,5.25,GL,1670360114
28,qasigiannguit,68.8193,-51.1922,-0.76,95,100,1.62,GL,1670360193
29,saint george,37.1041,-113.5841,11.91,70,20,2.06,US,1670359924
30,bongandanga,1.5,21.05,22.77,86,100,1.23,CD,1670360193
31,mataura,-46.1927,168.8643,11.38,55,1,3.81,NZ,1670360110
32,cherskiy,68.75,161.3,-27.2,97,100,3.96,RU,1670360193
33,chokurdakh,70.6333,147.9167,-25.69,98,100,2.44,RU,1670360120
34,saint-philippe,-21.3585,55.7679,24.77,86,88,5.99,RE,1670360104
35,fortuna,40.5982,-124.1573,13.29,77,0,0.45,US,1670360194
36,belyy yar,53.6039,91.3903,-28.41,70,75,0.0,RU,1670360194
37,tazovskiy,67.4667,78.7,-16.54,97,100,4.69,RU,1670360194
38,moranbah,-22.0016,148.0466,25.93,54,0,3.96,AU,1670360195
39,rabo de peixe,37.8,-25.5833,15.15,98,40,7.72,PT,1670360195
40,avarua,-21.2078,-159.775,22.03,100,100,2.06,CK,1670360139
41,airai,-8.9266,125.4092,15.3,62,69,0.65,TL,1670360151
42,aklera,24.4167,76.5667,15.04,40,0,1.34,IN,1670360195
43,tuktoyaktuk,69.4541,-133.0374,-27.0,69,75,7.72,CA,1670360155
44,punta arenas,-53.15,-70.9167,9.06,46,20,13.38,CL,1670359886
45,agirish,61.9247,63.0231,-17.99,97,22,2.04,RU,1670360196
46,bethel,41.3712,-73.414,12.89,83,100,1.34,US,1670360124
47,hermanus,-34.4187,19.2345,13.22,63,22,0.25,ZA,1670360055
48,gravdal,68.1214,13.5031,-0.06,100,75,5.66,NO,1670360196
49,kidal,18.4411,1.4078,26.08,16,96,4.35,ML,1670360197
50,poum,-20.2333,164.0167,27.22,76,100,2.26,NC,1670360197
51,charyshskoye,51.3978,83.5598,-17.7,99,99,0.34,RU,1670360197
52,marawi,7.9986,124.2928,19.48,93,100,0.38,PH,1670360169
53,barrow,71.2906,-156.7887,-6.99,93,100,9.26,US,1670360132
54,vaini,-21.2,-175.2,28.09,83,75,3.6,TO,1670360128
55,desaguadero,-16.5656,-69.0417,11.04,57,62,0.69,PE,1670360198
56,jamestown,42.097,-79.2353,7.77,74,100,2.57,US,1670359967
57,beringovskiy,63.05,179.3167,-12.15,85,100,4.63,RU,1670360115
58,pevek,69.7008,170.3133,-12.64,96,100,2.33,RU,1670360125
59,busselton,-33.65,115.3333,11.55,85,14,5.91,AU,1670360123
60,healesville,-37.65,145.5167,16.96,63,69,1.23,AU,1670360198
61,bluff,-46.6,168.3333,11.56,59,1,7.44,NZ,1670360124
62,springdale,36.1867,-94.1288,18.06,82,75,6.17,US,1670360199
63,kahului,20.8947,-156.47,27.76,76,99,4.92,US,1670360140
64,safaga,26.7292,33.9365,19.58,50,0,6.56,EG,1670360057
65,puerto ayora,-0.7393,-90.3518,24.98,81,54,2.24,EC,1670360115
66,turka,49.1541,23.0297,2.48,89,100,4.45,UA,1670360199
67,dagana,16.5165,-15.5068,27.77,33,2,5.38,MR,1670360200
68,kharan,28.5833,65.4167,13.42,31,3,1.51,PK,1670360200
69,jian,27.1172,114.9793,7.44,90,100,1.42,CN,1670360200
70,dikson,73.5069,80.5464,-15.18,97,77,4.98,RU,1670360128
71,guangyuan,32.442,105.823,5.35,79,83,0.59,CN,1670360201
72,berlevag,70.8578,29.0864,2.0,87,75,10.29,NO,1670360164
73,tautira,-17.7333,-149.15,25.93,78,47,8.13,PF,1670360201
74,ingham,42.6,-84.3833,6.68,76,100,2.57,US,1670360201
75,thompson,55.7435,-97.8558,-25.91,70,20,3.09,CA,1670360143
76,douglas,41.3,-96.167,7.0,51,0,3.6,US,1670359933
77,phan thiet,10.9333,108.1,23.96,84,100,1.88,VN,1670360202
78,norman wells,65.282,-126.8329,-29.98,69,75,2.06,CA,1670360111
79,bengkulu,-3.8004,102.2655,24.04,87,100,1.7,ID,1670360202
80,lasa,46.6166,10.7002,-2.02,66,12,1.55,IT,1670360112
81,butaritari,3.0707,172.7902,27.0,81,88,6.08,KI,1670360108
82,kenai,60.5544,-151.2583,-1.03,99,100,1.54,US,1670360136
83,vestmannaeyjar,63.4427,-20.2734,1.7,72,16,7.52,IS,1670360203
84,zhigansk,66.7697,123.3711,-30.53,96,100,9.98,RU,1670360203
85,ponta do sol,32.6667,-17.1,21.67,94,100,6.31,PT,1670360204
86,tongliao,43.6125,122.2653,-7.9,54,0,6.75,CN,1670360204
87,upernavik,72.7868,-56.1549,-1.24,97,100,8.23,GL,1670360113
88,inuvik,68.3499,-133.7218,-24.52,58,75,4.63,CA,1670360071
89,tiksi,71.6872,128.8694,-32.79,100,97,1.79,RU,1670360204
90,kavieng,-2.5744,150.7967,27.36,78,92,3.56,PG,1670360171
91,dalbandin,28.8947,64.4101,12.27,32,0,2.65,PK,1670360205
92,seoul,37.5683,126.9778,3.69,84,75,2.57,KR,1670360205
93,sao filipe,14.8961,-24.4956,23.13,74,56,2.71,CV,1670360205
94,savinka,50.0785,47.0994,-10.41,70,20,3.12,RU,1670360206
95,anito,12.4497,125.2886,25.15,80,79,2.78,PH,1670360206
96,chuy,-33.6971,-53.4616,23.48,63,0,4.47,UY,1670360111
97,cape town,-33.9258,18.4232,17.84,61,0,3.09,ZA,1670360002
98,te anau,-45.4167,167.7167,11.21,65,31,0.54,NZ,1670360206
99,do gonbadan,30.3586,50.7981,14.05,67,75,6.17,IR,1670360207
100,hobart,-42.8794,147.3294,10.14,84,20,5.66,AU,1670360000
101,mayumba,-3.432,10.6554,24.61,87,100,1.53,GA,1670360207
102,chitipa,-9.7024,33.2697,18.13,72,75,0.98,MW,1670360208
103,port blair,11.6667,92.75,26.84,84,97,7.75,IN,1670360208
104,new norfolk,-42.7826,147.0587,9.95,65,95,1.2,AU,1670360122
105,payo,-3.7508,103.6372,22.27,98,100,0.78,ID,1670360208
106,pacific grove,36.6177,-121.9166,13.56,74,100,4.02,US,1670360178
107,sinnamary,5.3833,-52.95,26.13,87,49,4.35,GF,1670360209
108,elbrus,43.2577,42.6443,-9.2,89,43,0.98,RU,1670360209
109,ucluelet,48.9329,-125.5528,7.27,88,100,2.03,CA,1670360209
110,portland,45.5234,-122.6762,6.46,87,100,2.68,US,1670360174
111,arlit,18.7369,7.3853,25.1,15,48,3.95,NE,1670360210
112,ust-kuyga,70.0167,135.6,-39.58,100,59,0.88,RU,1670360210
113,antsohihy,-14.8796,47.9875,25.36,76,1,2.18,MG,1670360210
114,carnarvon,-24.8667,113.6333,20.82,77,58,6.8,AU,1670360116
115,mao,39.8885,4.2658,12.31,100,0,3.09,ES,1670360007
116,tromso,69.6496,18.957,-1.99,74,0,1.54,NO,1670360211
117,dunedin,-45.8742,170.5036,9.33,66,52,0.89,NZ,1670360208
118,sri aman,1.2376,111.4621,24.03,100,100,0.0,MY,1670360211
119,komsomolskiy,40.4272,71.7189,1.4,64,75,1.03,UZ,1670360211
120,port alfred,-33.5906,26.891,17.32,89,1,7.68,ZA,1670360055
121,chicama,-7.8447,-79.1469,21.3,62,75,4.84,PE,1670360212
122,malartic,48.1335,-78.1328,-6.94,93,100,2.96,CA,1670360028
123,woodway,31.506,-97.205,24.69,78,40,5.66,US,1670360054
124,emerald,-23.5333,148.1667,28.39,38,0,3.14,AU,1670360059
125,riyadh,24.6877,46.7219,23.08,36,6,4.7,SA,1670360097
126,khatanga,71.9667,102.5,-19.17,96,100,5.68,RU,1670360150
127,xifeng,42.7372,124.7222,-9.29,73,0,3.16,CN,1670360213
128,guerrero negro,27.9769,-114.0611,18.72,51,10,7.92,MX,1670360144
129,mahebourg,-20.4081,57.7,25.16,83,75,5.14,MU,1670360129
130,katsuura,35.1333,140.3,9.86,68,4,0.45,JP,1670360213
131,kushmurun,52.4503,64.6311,-21.84,99,54,2.48,KZ,1670360213
132,paamiut,61.994,-49.6678,-0.42,94,69,4.33,GL,1670360213
133,gat,31.61,34.7642,16.33,100,48,1.65,IL,1670360214
134,talnakh,69.4865,88.3972,-3.77,96,100,7.18,RU,1670360214
135,kruisfontein,-34.0033,24.7314,18.27,84,0,1.47,ZA,1670360214
136,longyearbyen,78.2186,15.6401,-14.09,61,20,6.69,SJ,1670360215
137,qaanaaq,77.484,-69.3632,-0.9,74,100,4.13,GL,1670360136
138,bonfim,3.0833,-59.95,28.38,70,90,2.65,BR,1670360215
139,kieta,-6.2167,155.6333,27.29,76,100,0.9,PG,1670360215
140,kapaa,22.0752,-159.319,27.18,84,75,5.14,US,1670360109
141,yellowknife,62.456,-114.3525,-31.36,68,20,2.06,CA,1670360138
142,san patricio,28.017,-97.5169,27.88,62,40,7.18,US,1670360216
143,fuling,29.7022,107.3919,9.37,74,99,0.78,CN,1670360216
144,souillac,-20.5167,57.5167,25.21,83,75,5.14,MU,1670360160
145,clyde river,70.4692,-68.5914,-15.87,92,75,1.03,CA,1670360217
146,coquimbo,-29.9533,-71.3436,19.85,68,20,5.66,CL,1670360110
147,midland,31.9974,-102.0779,22.05,59,75,3.6,US,1670360168
148,saint-joseph,-21.3667,55.6167,24.21,83,80,5.94,RE,1670360154
149,axim,4.8699,-2.2405,26.3,85,55,4.14,GH,1670360217
150,chulman,56.8479,124.9104,-24.29,95,100,2.29,RU,1670360152
151,keti bandar,24.1447,67.4497,22.19,28,0,3.78,PK,1670360114
152,pavlivka,49.4414,28.4596,-3.46,91,100,6.72,UA,1670360218
153,haines junction,60.7522,-137.5108,-18.03,78,98,0.51,CA,1670360218
154,alofi,-19.0595,-169.9187,27.94,74,40,3.6,NU,1670360218
155,saint-louis,16.3333,-15.0,30.69,27,2,3.08,SN,1670360142
156,rawson,-43.3002,-65.1023,20.82,39,15,8.23,AR,1670360156
157,nokaneng,-19.6667,22.2667,24.51,51,83,5.09,BW,1670360219
158,cockburn town,21.4612,-71.1419,25.72,63,78,7.56,TC,1670360219
159,newport,51.5877,-2.9984,5.81,77,25,4.76,GB,1670359952
160,altamont,42.2068,-121.7372,2.66,77,10,0.89,US,1670360219
161,sainte-suzanne,-20.9061,55.6089,25.26,87,75,7.2,RE,1670360219
162,sweetwater,25.7634,-80.3731,27.23,68,6,1.79,US,1670360220
163,pisco,-13.7,-76.2167,24.03,60,0,9.26,PE,1670360220
164,hambantota,6.1241,81.1185,25.38,83,100,0.9,LK,1670360221
165,villarrobledo,39.2699,-2.6012,9.88,87,87,2.59,ES,1670360221
166,quelimane,-17.8786,36.8883,27.97,78,75,7.72,MZ,1670360221
167,kaitangata,-46.2817,169.8464,11.74,56,3,5.9,NZ,1670360167
168,lazaro cardenas,17.9583,-102.2,28.75,66,2,4.05,MX,1670360222
169,hirado,33.3597,129.5531,7.99,59,100,7.54,JP,1670360223
170,tezu,27.9167,96.1667,15.58,39,0,1.99,IN,1670360223
171,bedesa,8.9,40.7833,16.47,48,46,0.96,ET,1670360223
172,yilan,24.757,121.753,18.28,94,98,1.05,TW,1670360224
173,labuhan,-6.8844,112.2051,25.29,86,100,2.49,ID,1670360224
174,natal,-5.795,-35.2094,27.36,69,40,5.66,BR,1670360067
175,joensuu,62.6012,29.7632,-3.73,100,100,4.63,FI,1670360225
176,lata,40.1629,-8.3327,12.26,94,100,1.19,PT,1670360225
177,mafeteng,-29.823,27.2374,15.12,23,15,1.12,LS,1670360225
178,anajatuba,-3.2644,-44.6197,26.78,75,61,2.44,BR,1670360226
179,mandurah,-32.55,115.7,14.43,71,0,7.97,AU,1670360226
180,mackay,-21.15,149.2,23.71,69,0,3.13,AU,1670360226
181,ha giang,22.8333,104.9833,16.16,93,100,0.88,VN,1670360227
182,muyezerskiy,63.9333,31.65,-3.9,92,100,4.42,RU,1670360228
183,saint-augustin,51.226,-58.6502,-4.2,91,100,2.16,CA,1670360228
184,namatanai,-3.6667,152.4333,26.9,80,100,2.61,PG,1670360228
185,codrington,-38.2667,141.9667,13.26,80,36,3.61,AU,1670360229
186,yakeshi,49.2833,120.7333,-21.59,100,100,2.36,CN,1670360229
187,bhimunipatnam,17.8833,83.4333,20.73,77,99,2.78,IN,1670360230
188,maracacume,-2.0428,-45.9592,26.98,72,95,1.34,BR,1670360233
189,oparino,59.8518,48.2783,-11.01,80,100,4.59,RU,1670360233
190,kargil,34.5667,76.1,-7.94,51,3,1.32,IN,1670360233
191,cidreira,-30.1811,-50.2056,22.58,83,12,3.54,BR,1670360149
192,kadaya,50.9327,119.2911,-27.61,99,16,1.14,RU,1670360234
193,baykit,61.67,96.37,-11.46,90,100,3.69,RU,1670360234
194,anadyr,64.75,177.4833,-10.72,85,75,5.0,RU,1670360235
195,severo-kurilsk,50.6789,156.125,-2.78,82,51,4.44,RU,1670360235
196,awjilah,29.1081,21.2869,20.64,19,67,3.55,LY,1670360235
197,mashhad,36.297,59.6062,0.08,93,20,2.06,IR,1670360236
198,houma,29.5958,-90.7195,27.78,76,90,3.13,US,1670360112
199,klaksvik,62.2266,-6.589,2.51,64,100,11.29,FO,1670360156
200,dingle,10.9995,122.6711,23.39,93,36,3.25,PH,1670360236
201,baghdad,33.3406,44.4009,11.95,87,1,0.0,IQ,1670360107
202,rumoi,43.9344,141.6428,0.81,68,100,6.51,JP,1670360237
203,sawkta,8.6319,-13.2019,27.01,80,15,3.93,SL,1670360237
204,mujiayingzi,42.1167,118.7833,-8.65,43,0,3.85,CN,1670360237
205,port keats,-14.25,129.55,27.17,81,89,1.24,AU,1670360238
206,lorengau,-2.0226,147.2712,26.5,83,96,3.75,PG,1670360238
207,bathsheba,13.2167,-59.5167,28.34,80,20,3.6,BB,1670360238
208,casablanca,33.5928,-7.6192,17.12,93,93,1.79,MA,1670360075
209,touros,-5.1989,-35.4608,26.26,75,70,5.98,BR,1670359996
210,tall kayf,37.0833,41.0667,10.78,71,88,0.72,TR,1670360239
211,pemangkat,1.1667,108.9667,24.85,90,100,2.07,ID,1670360239
212,sikasso,10.9167,-7.0,28.47,24,7,2.05,ML,1670360240
213,anloga,5.7947,0.8973,27.65,82,30,4.59,GH,1670360240
214,san rafael,-34.6177,-68.3301,31.24,21,0,3.0,AR,1670360241
215,acajutla,13.5928,-89.8275,28.63,54,1,2.41,SV,1670360241
216,nantucket,41.2835,-70.0995,11.19,91,100,7.28,US,1670360228
217,narsaq,60.9167,-46.05,1.9,99,100,2.59,GL,1670360242
218,alcala la real,37.4614,-3.923,9.48,90,98,0.25,ES,1670360242
219,ewa beach,21.3156,-158.0072,27.69,71,99,3.58,US,1670360242
220,puerto escondido,15.85,-97.0667,28.45,61,0,2.63,MX,1670360243
221,victoria,22.2855,114.1577,17.4,76,7,4.92,HK,1670360032
222,wangaratta,-36.3667,146.3333,15.09,78,89,0.81,AU,1670360243
223,rovaniemi,66.5,25.7167,-3.33,93,100,1.03,FI,1670360243
224,cururupu,-1.8283,-44.8683,26.26,81,17,2.66,BR,1670360244
225,zhuanghe,39.7008,122.9911,-1.19,48,0,2.74,CN,1670360244
226,warmbad,-28.45,18.7333,20.42,33,0,5.07,NA,1670360244
227,sosnovo-ozerskoye,52.5249,111.5418,-13.1,74,99,5.86,RU,1670360245
228,fairbanks,64.8378,-147.7164,-5.43,87,75,0.0,US,1670360245
229,georgetown,5.4112,100.3354,24.99,91,40,2.68,MY,1670359880
230,corinto,37.9407,22.9573,13.83,84,99,1.83,GR,1670360246
231,faanui,-16.4833,-151.75,26.68,74,17,7.92,PF,1670360165
232,huarmey,-10.0681,-78.1522,21.97,73,52,4.88,PE,1670360246
233,wajid,3.8093,43.2471,25.32,68,100,6.01,SO,1670360246
234,mama,58.3106,112.8986,-11.88,93,100,4.51,RU,1670360247
235,waingapu,-9.6567,120.2641,25.24,82,36,1.33,ID,1670360247
236,harare,-17.8294,31.0539,17.68,75,67,1.99,ZW,1670360247
237,carutapera,-1.195,-46.02,25.79,84,18,4.21,BR,1670360001
238,consett,54.854,-1.8316,2.46,90,18,4.95,GB,1670360248
239,san pedro,14.35,121.0167,25.75,85,20,2.06,PH,1670360194
240,okhotsk,59.3833,143.3,-26.6,91,77,2.5,RU,1670360162
241,serro,-18.6047,-43.3794,18.97,93,100,0.67,BR,1670360248
242,aksu,41.1231,80.2644,-4.02,39,100,1.1,CN,1670360248
243,boyolangu,-8.1181,111.8935,24.1,88,100,0.92,ID,1670360249
244,kununurra,-15.7667,128.7333,26.99,94,75,0.0,AU,1670360249
245,brindisi,40.5833,17.6667,14.89,89,64,3.68,IT,1670360243
246,ahipara,-35.1667,173.1667,16.93,86,100,7.03,NZ,1670360249
247,muli,2.9167,73.5667,26.55,77,100,2.71,MV,1670360250
248,sur,22.5667,59.5289,22.33,58,0,1.76,OM,1670360250
249,awbari,26.5921,12.7805,17.88,22,1,0.85,LY,1670360113
250,oranjemund,-28.55,16.4333,15.07,91,22,4.41,NA,1670360250
251,ngunguru,-35.6167,174.5,16.7,94,100,9.66,NZ,1670360251
252,vallenar,-28.5708,-70.7581,28.78,33,14,3.87,CL,1670360251
253,grindavik,63.8424,-22.4338,3.26,87,100,3.09,IS,1670360139
254,lufilufi,-13.8745,-171.5986,26.88,77,93,5.28,WS,1670360252
255,albanel,48.8832,-72.4487,1.99,80,100,4.12,CA,1670360084
256,rio cuarto,-33.1307,-64.3499,37.87,20,40,4.12,AR,1670360154
257,ivdel,60.6911,60.4206,-19.75,98,24,1.56,RU,1670360252
258,lavrentiya,65.5833,-171.0,-6.47,89,99,0.99,RU,1670360145
259,bambanglipuro,-7.95,110.2833,23.94,91,100,1.74,ID,1670360126
260,tura,25.5198,90.2201,15.08,87,45,1.26,IN,1670360252
261,hurghada,27.2574,33.8129,18.02,45,0,3.6,EG,1670360253
262,ifanadiana,-21.3,47.6333,19.86,96,62,0.22,MG,1670360253
263,cabo san lucas,22.8909,-109.9124,29.78,57,12,3.53,MX,1670360173
264,east london,-33.0153,27.9116,18.14,84,53,3.54,ZA,1670360149
265,provideniya,64.3833,-173.3,-1.94,80,75,6.0,RU,1670360137
266,harstad,68.799,16.5293,-0.47,100,90,4.02,NO,1670360254
267,arrecife,28.963,-13.5477,18.99,82,40,2.57,ES,1670360254
268,wamba,8.9333,8.6,24.91,23,91,2.22,NG,1670360254
269,lyubech,51.7026,30.6569,-6.84,75,22,6.01,UA,1670360254
270,tessalit,20.1986,1.0114,25.82,14,98,4.94,ML,1670360152
271,chara,56.9064,118.2631,-22.52,76,30,1.51,RU,1670360255
272,hobyo,5.3505,48.5268,26.35,76,100,7.3,SO,1670360255
273,fort morgan,40.2503,-103.8,9.36,37,0,2.06,US,1670360255
274,ketchikan,55.3422,-131.6461,2.99,97,100,2.12,US,1670360256
275,usoke,-5.1667,32.35,18.55,83,26,1.38,TZ,1670360256
276,tuensang,26.2833,94.8333,12.29,92,1,1.45,IN,1670360256
277,semey,50.4111,80.2275,-26.14,99,42,1.73,KZ,1670360257
278,kasungu,-13.0333,33.4833,19.59,82,97,1.66,MW,1670360257
279,usinsk,65.9939,57.5281,-14.99,92,100,9.24,RU,1670360257
280,lagoa,39.05,-27.9833,14.6,81,100,15.79,PT,1670360131
281,svetlogorsk,52.6333,29.7333,-7.63,85,89,5.97,BY,1670360258
282,manadhoo,5.7667,73.3833,27.16,76,93,2.94,MV,1670360258
283,shieli,44.1667,66.75,-13.36,90,5,1.65,KZ,1670360258
284,san policarpo,12.1791,125.5072,27.22,70,100,4.04,PH,1670360259
285,robertsport,6.7533,-11.3686,27.0,82,44,4.33,LR,1670360259
286,hamilton,39.1834,-84.5333,12.46,96,100,0.45,US,1670360131
287,khuzdar,27.7384,66.6434,12.52,33,0,1.94,PK,1670360259
288,chanika,-5.4167,38.0167,20.99,94,100,2.03,TZ,1670360260
289,astara,38.5,48.6667,2.99,98,100,0.94,AZ,1670360260
290,nome,64.5011,-165.4064,-7.72,94,83,1.95,US,1670360260
291,tual,-5.6667,132.75,28.16,69,100,3.49,ID,1670360175
292,buraydah,26.326,43.975,15.25,85,75,4.09,SA,1670360261
293,presidencia roque saenz pena,-26.7852,-60.4388,41.34,13,2,2.39,AR,1670360261
294,peniche,39.3558,-9.3811,12.47,95,93,1.43,PT,1670360261
295,metro,-5.1131,105.3067,23.45,92,100,2.29,ID,1670360262
296,bredasdorp,-34.5322,20.0403,15.8,68,32,0.46,ZA,1670360127
297,laguna,38.421,-121.4238,15.35,72,0,3.09,US,1670360262
298,nouakchott,18.0858,-15.9785,23.96,70,5,5.38,MR,1670359909
299,geraldton,-28.7667,114.6,17.23,59,0,4.63,AU,1670360158
300,walvis bay,-22.9575,14.5053,16.16,82,0,4.63,NA,1670360263
301,obo,5.3998,26.4869,24.51,44,78,1.4,CF,1670360263
302,dubai,25.2582,55.3047,24.96,69,0,2.57,AE,1670360263
303,treinta y tres,-33.2333,-54.3833,30.75,27,0,6.84,UY,1670360264
304,bonthe,7.5264,-12.505,26.62,83,52,2.96,SL,1670360264
305,vakhrushev,48.9833,142.9667,-8.42,73,100,4.01,RU,1670360264
306,ixtapa,20.7,-105.2,28.46,71,5,1.79,MX,1670360172
307,saint anthony,45.0205,-93.218,0.27,62,21,0.89,US,1670360146
308,surt,31.2089,16.5887,19.3,59,54,1.98,LY,1670360109
309,linkou,45.3,130.2833,-12.61,91,66,3.02,CN,1670360265
310,henties bay,-22.116,14.2845,14.42,91,0,2.97,NA,1670360265
311,pangnirtung,66.1451,-65.7125,-3.0,86,100,4.12,CA,1670360265
312,bambous virieux,-20.3428,57.7575,25.14,83,75,5.14,MU,1670360116
313,mandalgovi,45.7625,106.2708,-11.73,37,100,3.49,MN,1670360266
314,naze,28.3667,129.4833,14.51,62,89,6.88,JP,1670360266
315,ugoofaaru,5.6667,73.0,27.04,76,71,3.3,MV,1670360266
316,grandview,38.8858,-94.533,6.62,76,100,3.09,US,1670360073
317,takoradi,4.8845,-1.7554,26.44,85,67,4.34,GH,1670360154
318,santa marinella,42.0345,11.8536,14.71,92,100,3.64,IT,1670360267
319,dawson creek,55.7666,-120.2362,-24.2,58,20,4.63,CA,1670360159
320,tuatapere,-46.1333,167.6833,11.52,59,7,2.71,NZ,1670360267
321,abbeville,50.1,1.8333,3.98,85,93,1.66,FR,1670360267
322,sangmelima,2.9333,11.9833,20.92,84,97,1.44,CM,1670360268
323,isangel,-19.55,169.2667,29.06,70,57,0.51,VU,1670359968
324,northam,51.0333,-4.2167,5.22,86,12,3.07,GB,1670360268
325,torbay,47.6666,-52.7314,1.99,97,100,4.47,CA,1670360145
326,pangai,-19.8,-174.35,28.06,78,75,3.09,TO,1670360268
327,dwarka,22.2394,68.9678,22.94,41,0,5.8,IN,1670360269
328,lircay,-12.9896,-74.7205,14.3,57,76,6.34,PE,1670360269
329,iranshahr,27.2025,60.6848,17.19,42,0,2.06,IR,1670360269
330,ribeira grande,38.5167,-28.7,14.32,77,75,8.94,PT,1670360128
331,limpapa,7.1197,121.9106,24.66,83,92,1.55,PH,1670360270
332,coahuayana,18.7333,-103.6833,30.51,58,1,2.9,MX,1670360270
333,zhanakorgan,43.9098,67.2495,-12.03,82,2,1.49,KZ,1670360270
334,pangody,65.85,74.4859,-15.68,95,100,5.12,RU,1670360271
335,bosaso,11.2842,49.1816,24.41,72,96,1.58,SO,1670360271
336,kinablangan,7.6947,126.5503,24.41,86,97,2.98,PH,1670360271
337,morant bay,17.8815,-76.4093,30.79,71,31,6.62,JM,1670360272
338,chateau-gontier,47.8333,-0.7,5.4,94,25,3.02,FR,1670360272
339,camacha,33.0833,-16.3333,15.68,94,40,6.69,PT,1670360069
340,srednekolymsk,67.45,153.6833,-32.01,97,100,5.83,RU,1670360272
341,margate,51.3813,1.3862,5.49,89,100,2.24,GB,1670360273
342,lichinga,-13.3128,35.2406,18.32,72,56,2.32,MZ,1670360273
343,arraial do cabo,-22.9661,-42.0278,22.98,83,75,4.12,BR,1670360149
344,barranca,-10.75,-77.7667,21.44,71,14,4.79,PE,1670360273
345,marzuq,14.4,46.4667,16.55,82,53,2.18,YE,1670360274
346,labuan,5.2767,115.2417,25.2,94,20,0.0,MY,1670360274
347,arman,59.7,150.1667,-21.93,87,93,4.64,RU,1670360274
348,dzilam gonzalez,21.2833,-88.9333,30.46,41,59,3.4,MX,1670360274
349,caruray,10.3094,119.0128,25.26,87,18,2.73,PH,1670360275
350,hasaki,35.7333,140.8333,4.01,69,0,3.64,JP,1670360275
351,plymouth,41.8334,-70.8328,12.86,72,100,3.84,US,1670360275
352,sitka,57.0531,-135.33,5.07,99,100,3.15,US,1670360276
353,cumana,10.4635,-64.1775,25.94,65,67,2.27,VE,1670360276
354,lompoc,34.6391,-120.4579,16.96,65,0,1.34,US,1670360254
355,wanning,18.8003,110.3967,20.99,89,100,4.25,CN,1670360276
356,visnes,59.3556,5.2242,2.34,75,45,7.72,NO,1670360277
357,glebychevo,60.4387,28.7183,-2.29,96,100,5.99,RU,1670360277
358,leh,34.1667,77.5833,-7.57,78,53,0.65,IN,1670360277
359,fort wellington,6.4,-57.6,25.88,85,25,2.96,GY,1670360278
360,zhumadian,32.9794,114.0294,3.26,72,0,1.55,CN,1670360278
361,nanortalik,60.1432,-45.2371,2.23,99,100,2.51,GL,1670360132
362,burnie,-41.0667,145.9167,11.48,64,3,2.24,AU,1670360278
363,umm lajj,25.0213,37.2685,23.47,69,53,3.8,SA,1670360279
364,locri,38.2414,16.2623,16.29,76,94,0.85,IT,1670360279
365,mantua,45.1667,10.7833,5.53,92,5,0.85,IT,1670360279
366,sioux lookout,50.1001,-91.917,-18.96,78,100,2.06,CA,1670360087
367,nkhotakota,-12.9274,34.2961,25.56,63,49,2.42,MW,1670360280
368,sabha,27.0377,14.4283,19.03,20,1,2.34,LY,1670360280
369,ust-maya,60.4167,134.5333,-27.21,100,100,0.62,RU,1670360280
370,beira,-19.8436,34.8389,26.9,83,1,5.61,MZ,1670360281
371,dicabisagan,17.0818,122.4157,24.18,91,35,1.92,PH,1670360281
372,port hedland,-20.3167,118.5667,26.03,69,1,5.66,AU,1670360281
373,hilliard,40.0334,-83.1582,10.48,97,100,1.54,US,1670360282
374,teluk nibung,3.001,99.8164,24.74,89,100,1.34,ID,1670360283
375,harper,4.375,-7.7169,25.85,84,86,2.99,LR,1670360125
376,sarankhola,22.3082,89.7897,16.35,61,100,2.64,BD,1670360283
377,saldanha,-33.0117,17.9442,15.03,81,35,3.65,ZA,1670360130
378,esil,51.9556,66.4042,-22.62,98,64,1.62,KZ,1670360284
379,sao felix do xingu,-6.6447,-51.995,26.78,80,98,0.76,BR,1670360284
380,havre-saint-pierre,50.2334,-63.5986,3.0,80,0,4.12,CA,1670360285
381,bubaque,11.2833,-15.8333,27.52,67,1,5.75,GW,1670360285
382,mangan,27.5167,88.5333,13.94,44,2,2.6,IN,1670360285
383,haizhou,34.5817,119.1289,2.61,68,54,1.52,CN,1670360286
384,iqaluit,63.7506,-68.5145,-9.15,72,20,10.29,CA,1670360286
385,rozsypne,48.1497,38.5762,-6.77,62,8,6.98,UA,1670360286
386,kachiry,53.0675,76.1036,-20.52,96,100,1.52,KZ,1670360287
387,port augusta,-32.5,137.7667,18.43,65,100,9.38,AU,1670360147
388,tavares,28.8042,-81.7256,26.81,65,61,0.45,US,1670360039
389,escanaba,45.7453,-87.0646,0.17,82,100,0.45,US,1670360288
390,olafsvik,64.8945,-23.7142,4.35,71,97,4.3,IS,1670360172
391,conceicao do castelo,-20.3683,-41.2439,19.64,93,100,1.38,BR,1670360289
392,kautokeino,69.0125,23.0412,-5.6,96,100,2.53,NO,1670360289
393,marsabit,2.3284,37.9899,19.96,65,10,4.41,KE,1670360290
394,petropavlovsk-kamchatskiy,53.0452,158.6483,-9.67,100,75,2.0,RU,1670360290
395,mount gambier,-37.8333,140.7667,12.22,69,60,3.66,AU,1670360163
396,kaeo,-35.1,173.7833,17.96,96,100,7.92,NZ,1670360291
397,broken hill,-31.95,141.4333,22.38,43,100,0.54,AU,1670360292
398,saint-francois,46.4154,3.9054,2.04,93,100,1.03,FR,1670360292
399,turukhansk,65.8167,87.9833,-13.29,94,100,5.6,RU,1670360293
400,gubkinskiy,64.434,76.5026,-16.76,96,89,6.32,RU,1670360293
401,necochea,-38.5473,-58.7368,20.43,56,2,7.77,AR,1670360157
402,chancay,-11.5714,-77.2672,21.25,73,22,3.73,PE,1670360294
403,alice springs,-23.7,133.8833,26.75,21,54,5.66,AU,1670360294
404,santa isabel do rio negro,-0.4139,-65.0192,28.08,73,100,0.84,BR,1670360162
405,chapais,49.7834,-74.8492,-5.12,95,99,2.46,CA,1670360295
406,asau,46.4333,26.4,1.51,96,74,2.19,RO,1670360295
407,zarubino,42.63,131.0922,-2.92,45,5,7.76,RU,1670360296
408,karratha,-20.7377,116.8463,25.95,50,0,5.77,AU,1670360296
409,port-gentil,-0.7193,8.7815,23.98,100,40,3.09,GA,1670360171
410,orlik,52.5178,99.825,-20.08,86,100,1.15,RU,1670360297
411,raton,36.9034,-104.4391,11.29,23,24,6.98,US,1670360297
412,mastic beach,40.7668,-72.8521,14.32,89,100,1.34,US,1670360298
413,paka,4.6374,103.4368,24.99,100,70,0.0,MY,1670360298
414,gomel,52.4345,30.9754,-7.01,68,0,5.0,BY,1670360040
415,pingyin,36.2831,116.4453,0.95,65,61,2.54,CN,1670360298
416,senno,59.5336,33.9167,-7.08,94,100,4.16,RU,1670360299
417,swan river,52.1058,-101.2676,-26.06,70,9,5.14,CA,1670360299
418,namibe,-15.1961,12.1522,20.78,82,6,3.14,AO,1670360300
419,salalah,17.0151,54.0924,23.48,71,19,1.68,OM,1670360166
420,honiara,-9.4333,159.95,27.45,77,41,1.39,SB,1670360300
421,omboue,-1.5746,9.2618,24.66,91,100,2.75,GA,1670360301
422,fenoarivo,-18.933,47.4354,18.04,94,20,4.63,MG,1670360301
423,kavaratti,10.5669,72.642,27.33,70,95,1.68,IN,1670360148
424,atherton,53.5237,-2.4935,3.75,86,87,0.89,GB,1670360302
425,inyonga,-6.7167,32.0667,19.08,82,50,1.51,TZ,1670360302
426,tomatlan,19.9333,-105.25,30.58,56,2,4.11,MX,1670360303
427,ancud,-41.8697,-73.8203,14.94,80,61,3.21,CL,1670360104
428,esperance,-33.8667,121.9,14.6,70,98,5.92,AU,1670360134
429,west odessa,31.8424,-102.4988,22.6,53,100,5.13,US,1670360303
430,durango,24.8333,-104.8333,23.84,21,50,1.62,MX,1670360282
431,half moon bay,37.4636,-122.4286,14.47,77,20,0.0,US,1670360304
432,yulara,-25.2406,130.9889,26.57,38,41,2.48,AU,1670360304
433,tubuala,9.5167,-79.0333,27.57,72,77,6.68,PA,1670360305
434,manacapuru,-3.2997,-60.6206,28.86,69,90,1.65,BR,1670360305
435,romny,50.751,33.4747,-5.22,44,8,6.17,UA,1670360305
436,kasongo,-4.45,26.6667,19.26,96,41,0.66,CD,1670360306
437,zinder,13.8072,8.9881,22.44,18,46,4.53,NE,1670360306
438,winneba,5.3511,-0.6231,26.46,88,99,4.25,GH,1670360306
439,port hawkesbury,45.6169,-61.3485,5.33,95,100,4.12,CA,1670360306
440,altay,47.8667,88.1167,-17.17,78,46,2.97,CN,1670360307
441,ovalle,-30.5983,-71.2003,28.78,32,0,3.45,CL,1670360232
442,abong mbang,3.9833,13.1833,21.69,77,10,1.37,CM,1670360307
443,bahia blanca,-38.7196,-62.2724,26.27,29,0,0.89,AR,1670360178
444,taksimo,56.3444,114.8794,-18.01,85,99,2.13,RU,1670360308
445,sorland,67.667,12.6934,-0.08,89,100,16.01,NO,1670360308
446,olinda,-8.0089,-34.8553,27.85,65,20,3.6,BR,1670360308
447,chenzhou,25.8,113.0333,5.97,96,100,1.08,CN,1670360309
448,virginia beach,36.8529,-75.978,19.47,87,100,3.09,US,1670360062
449,dobrinka,52.1653,40.4731,-8.05,59,6,4.34,RU,1670360309
450,acapulco,16.8634,-99.8901,28.63,63,4,2.8,MX,1670360309
451,college,64.8569,-147.8028,-5.44,86,75,0.0,US,1670360310
452,husavik,66.0449,-17.3389,-2.27,80,95,5.52,IS,1670360310
453,venado tuerto,-33.7456,-61.9688,36.54,13,5,3.49,AR,1670360310
454,kirensk,57.7853,108.1119,-11.92,94,100,5.35,RU,1670360311
455,asasa,7.1,39.2,13.55,63,83,0.22,ET,1670360311
456,nabire,-3.3667,135.4833,23.91,85,100,1.4,ID,1670360106
457,aksarayskiy,46.7924,48.0119,-7.93,59,14,3.3,RU,1670360311
458,morro bay,35.3658,-120.8499,16.66,85,16,2.59,US,1670360312
459,varkaus,62.3153,27.873,-2.05,94,100,3.53,FI,1670360312
460,gizo,-8.103,156.8419,28.09,73,83,2.4,SB,1670360312
461,vanavara,60.34,102.2797,-11.56,91,100,5.87,RU,1670360313
462,siocon,7.7061,122.1353,25.22,88,100,2.25,PH,1670360313
463,aswan,24.0934,32.907,17.61,36,0,3.6,EG,1670360313
464,mahur,25.1667,93.1167,12.85,86,26,0.4,IN,1670360314
465,kanuma,36.55,139.7333,3.81,72,3,1.64,JP,1670360314
466,finschhafen,-6.6024,147.8681,27.38,73,100,2.16,PG,1670360314
467,strezhevoy,60.7333,77.5889,-20.51,100,97,3.1,RU,1670360314
468,kitgum,3.2783,32.8867,20.11,75,81,0.51,UG,1670360315
469,fort saint james,54.4333,-124.25,-11.85,86,100,0.67,CA,1670360315
470,villazon,-22.0866,-65.5942,15.46,42,100,9.39,BO,1670360315
471,ponta delgada,37.7333,-25.6667,15.83,82,40,7.72,PT,1670360316
472,puerto del rosario,28.5004,-13.8627,19.86,83,20,2.57,ES,1670360026
473,sochi,43.6,39.7303,7.05,68,100,4.05,RU,1670360316
474,ostrovnoy,68.0531,39.5131,-3.88,88,45,11.24,RU,1670360316
475,dryden,49.7833,-92.7503,-17.84,85,100,2.57,CA,1670360317
476,thinadhoo,0.5333,72.9333,27.74,74,69,6.52,MV,1670360317
477,kosh-agach,50.0,88.6667,-25.14,91,84,1.51,RU,1670360317
478,tiznit,29.5833,-9.5,15.99,71,100,0.28,MA,1670360318
479,aklavik,68.2191,-135.0107,-22.0,59,75,5.66,CA,1670360318
480,jumla,29.2747,82.1838,3.8,27,0,2.31,NP,1670360136
481,flinders,-34.5833,150.8552,18.99,80,59,3.13,AU,1670360318
482,broome,42.2506,-75.833,9.33,93,100,2.02,US,1670360319
483,cayenne,4.9333,-52.3333,27.02,83,0,1.03,GF,1670360319
484,markova,48.6758,24.4138,2.52,95,100,1.45,UA,1670360319
485,cobija,-11.0267,-68.7692,31.1,62,40,2.06,BO,1670360320
486,itupiranga,-5.1347,-49.3267,33.18,72,32,1.86,BR,1670360320
487,krasnoselkup,65.7,82.4667,-15.93,97,94,5.28,RU,1670360320
488,mukhen,48.1,136.1,-11.4,91,100,3.54,RU,1670360321
489,los llanos de aridane,28.6585,-17.9182,19.86,87,40,4.12,ES,1670360321
490,roald,62.5833,6.1333,3.2,74,20,3.6,NO,1670360321
491,proddatur,14.7333,78.55,21.2,84,100,1.02,IN,1670360322
492,fuerte olimpo,-21.0415,-57.8738,32.01,49,63,2.5,PY,1670360322
493,san cristobal,7.7669,-72.225,23.1,74,75,1.92,VE,1670360081
494,vila,42.0304,-8.1588,6.5,91,96,0.9,PT,1670360322
495,luanda,-8.8368,13.2343,26.0,89,20,3.6,AO,1670360053
496,prescott,34.54,-112.4685,12.31,64,9,3.13,US,1670360323
497,igrim,63.1906,64.4162,-15.44,91,21,3.18,RU,1670360323
498,puerto baquerizo moreno,-0.9,-89.6,20.78,77,59,5.12,EC,1670360323
499,leua,48.2156,18.6071,3.76,82,99,3.87,SK,1670360324
500,lepe,37.2548,-7.2043,14.5,84,74,0.42,ES,1670360324
501,porosozero,62.7191,32.727,-4.9,93,100,3.41,RU,1670360324
502,meulaboh,4.1363,96.1285,23.72,95,100,3.11,ID,1670360153
503,port macquarie,-31.4333,152.9167,21.61,77,28,2.1,AU,1670360060
504,yerbogachen,61.2767,108.0108,-11.88,92,100,6.03,RU,1670360325
505,amapa,1.0,-52.0,27.02,68,100,1.17,BR,1670360325
506,trzebiatow,54.0615,15.2648,3.36,86,100,4.49,PL,1670360325
507,potosi,-19.5836,-65.7531,11.61,38,100,5.3,BO,1670360326
508,shitanjing,39.2342,106.3439,-5.05,38,100,1.03,CN,1670360326
509,westport,41.1415,-73.3579,14.05,83,100,3.13,US,1670360326
510,intipuca,13.1969,-88.0544,31.13,41,1,1.65,SV,1670360326
511,sarti,40.1,23.9833,12.54,78,100,2.01,GR,1670360327
512,mogadishu,2.0371,45.3438,25.16,80,100,4.01,SO,1670360327
513,muros,42.7762,-9.0603,11.02,92,96,2.1,ES,1670360165
514,brae,60.3964,-1.353,3.17,70,100,12.06,GB,1670360327
515,joshimath,30.5667,79.5667,7.66,18,0,3.97,IN,1670360328
516,dekernes,31.0876,31.595,14.29,71,1,2.16,EG,1670360328
517,vila velha,-20.3297,-40.2925,24.97,86,100,4.63,BR,1670360328
518,manaus,-3.1019,-60.025,32.27,58,40,3.09,BR,1670360329
519,sao joao da barra,-21.6403,-41.0511,25.05,92,100,5.74,BR,1670360329
520,namie,37.4833,141.0,5.95,84,11,2.37,JP,1670360329
521,mirnyy,62.5353,113.9611,-17.65,84,100,7.15,RU,1670360330
522,truro,50.2653,-5.0544,3.6,81,0,3.6,GB,1670360330
523,sokoni,-6.4333,39.55,26.92,79,99,6.15,TZ,1670360330
524,tehachapi,35.1322,-118.449,10.3,66,58,4.92,US,1670360205
525,maragogi,-9.0122,-35.2225,25.21,78,87,2.47,BR,1670360331
526,kenora,49.8167,-94.4337,-18.46,78,100,0.0,CA,1670360262
527,jamsa,61.8642,25.19,-0.48,97,100,2.72,FI,1670360331
528,wuchi,29.3786,103.023,-0.2,98,100,0.49,CN,1670360331
529,igarka,67.4667,86.5833,-12.15,94,98,6.58,RU,1670360332
530,hofn,64.2539,-15.2082,1.14,62,22,4.19,IS,1670360157
531,ayorou,14.7308,0.9174,27.83,15,87,4.62,NE,1670360332
532,kapit,2.0167,112.9333,22.79,100,94,0.38,MY,1670360332
533,shaowu,27.3409,117.4831,9.3,96,100,0.64,CN,1670360333
534,coos bay,43.3665,-124.2179,11.24,100,6,1.45,US,1670360333
535,kodino,63.7198,39.6447,-6.82,91,100,3.86,RU,1670360333
536,torbat-e jam,35.244,60.6225,0.87,64,32,0.55,IR,1670360334
537,terney,45.0503,136.6092,-7.6,70,98,2.89,RU,1670360334
538,north bend,43.4065,-124.2243,11.2,100,6,1.49,US,1670360334
539,pando,-34.7167,-55.95,33.22,51,0,6.17,UY,1670360335
540,palmer,42.1584,-72.3287,13.33,77,100,0.0,US,1670360335
541,erenhot,43.6475,111.9767,-10.81,60,76,3.31,CN,1670360335
542,mineiros,-17.5694,-52.5511,25.49,61,100,2.92,BR,1670360336
543,hammerfest,70.6634,23.6821,-0.75,100,100,1.54,NO,1670360336
544,saint-pierre,-21.3393,55.4781,24.95,83,70,9.77,RE,1670360336
545,lagos,6.5833,3.75,28.18,85,100,1.98,NG,1670360337
546,warrnambool,-38.3833,142.4833,12.78,81,8,3.29,AU,1670360142
547,klyuchi,52.2667,79.1667,-23.88,99,28,1.87,RU,1670360337
548,yavaros,26.7,-109.5167,24.14,61,100,1.98,MX,1670360337
549,kajaani,64.2273,27.7285,-1.97,93,100,4.12,FI,1670360338
550,vao,-22.6667,167.4833,24.48,88,73,1.75,NC,1670360155
551,kiboga,0.9161,31.7742,16.08,96,81,0.59,UG,1670360338
552,tagusao,9.1924,117.8141,25.51,85,55,2.59,PH,1670360141
553,grootfontein,-19.5667,18.1167,25.76,15,27,4.12,NA,1670360118
554,hirara,24.8,125.2833,21.84,72,25,12.41,JP,1670360338
555,xingyi,24.1877,102.817,8.82,97,57,1.61,CN,1670360339
556,mvuma,-19.2792,30.5283,18.36,80,98,1.23,ZW,1670360339
557,ruteng,-8.6136,120.4721,15.4,80,87,0.32,ID,1670360339
558,richards bay,-28.783,32.0377,20.12,87,100,1.1,ZA,1670360206
559,camana,-16.6228,-72.7111,21.31,77,87,3.08,PE,1670360340
560,avera,33.194,-82.5271,19.1,85,98,0.51,US,1670359881
561,rocha,-34.4833,-54.3333,28.19,32,0,5.28,UY,1670360340
562,aykhal,66.0,111.5,-14.27,94,100,11.6,RU,1670360340
563,along,28.1667,94.7667,11.09,70,0,0.88,IN,1670360341
564,bayburt,40.2589,40.2278,-0.02,70,96,1.48,TR,1670360174
565,eyl,7.9803,49.8164,24.37,74,93,6.63,SO,1670360341
566,aripuana,-9.1667,-60.6333,27.86,75,95,1.44,BR,1670360343
